{"pageProps":{"villages":[{"municipality":"Benito Soliven","association":"Lucban SWISA Inc.","province":"Isabela","lat":"16.9916","lon":"121.9729","barangay":"Lucban"},{"lat":"17.1543","association":"AMIAnan Farmers Entrepreneur Agriculture Cooperative","province":"Isabela","lon":"121.953","municipality":"Ilagan","barangay":"Sta. Victoria"},{"municipality":"Buguey","lat":"18.2543","association":"Calamegatan Farmers'and Fisher Folks' Association","province":"Cagayan","barangay":"Calamegatan","lon":"121.8534"},{"lat":"18.3299","lon":"121.4856","barangay":"Nararagan","province":"Cagayan","association":"Nararagan United Farmers Association","municipality":"Ballesteros"},{"lon":"121.3656","province":"Quirino","barangay":"Giayan","municipality":"Nagtipunan","lat":"16.1417","association":"Giayan Multi-Purpose Cooperative"},{"municipality":"Benito Soliven","province":"Isabela","lon":"121.9615","association":"Alay Kapwa sa Maluno Sur","lat":"17.0196","barangay":"Maluno Norte"},{"province":"Isabela","lat":"17.0061","association":"Maluno Norte Farmers Association","lon":"121.9644","municipality":"Benito Soliven","barangay":"Maluno Sur"},{"lat":"17.0329","barangay":"Yeban Norte","province":"Isabela","lon":"121.9302","municipality":"Benito Soliven","association":"Yeban Norte Farmers Association"},{"lon":"122.1258","province":"Isabela","association":"San Jose Farmers Association","barangay":"San Jose","lat":"16.9279","municipality":"San Mariano"},{"barangay":"Mabini","lon":"121.7366","province":"Isabela","municipality":"Gamu","lat":"17.098","association":"Baru A Langa Ti  Mannalon Cooperative"},{"lon":"121.5456","municipality":"Santiago City","province":"Isabela","association":"Santiago Amos Credit and Development Cooperative","barangay":"Rizal","lat":"16.7202"},{"barangay":"Mala Weste","association":"Mala Weste Farmers Association**","province":"Cagayan","lon":"121.8491","lat":"18.2801","municipality":"Buguey"},{"barangay":"San Lorenzo","municipality":"Buguey","lat":"18.2125","association":"San Lorenzo Farmers Association**","lon":"121.8289","province":"Cagayan"},{"barangay":"Maddalero","lat":"18.248","municipality":"Buguey","association":"Maddalero Farmers Association**","province":"Cagayan","lon":"121.8306"},{"barangay":"Masisit","municipality":"Sanchez-Mira","lon":"121.224","lat":"18.585","association":"Masisit-Dacal Livelihood Cooperative","province":"Cagayan"},{"association":"Union BP2 and Farmers Association","lat":"16.9655","municipality":"Cauayan City","lon":"121.815","barangay":"Union","province":"Isabela"},{"lon":"121.7594","province":"Isabela","association":"Minante 1 BP2 and Farmers Association","municipality":"Cauayan City","lat":"16.9163","barangay":"Minante 1"},{"lon":"121.577","municipality":"Roxas","province":"Isabela","lat":"17.0628","barangay":"Matusalem","association":"BP2 Matusalem Farmers Association"},{"province":"Isabela","municipality":"Ilagan","lon":"121.8648","association":"City of Ilagan BP2 and Farmers Association","barangay":"Naguillian Norte","lat":"17.1672"},{"association":"Annafunan BP2 and Farmers Association","barangay":"Annafunan","municipality":"Tumauini","province":"Isabela","lon":"121.8022","lat":"17.2828"},{"province":"Isabela","lon":"121.7496","lat":"17.4584","barangay":"Mozzozin Norte","association":"Mozzozzin Norte BP2 and Farmers Association","municipality":"Santa Maria"},{"association":"Balik Probinsya Bagong Pagasa of Iguig Farmers Association","province":"Cagayan","barangay":"Minanga","lon":"121.7274","municipality":"Iguig","lat":"17.7658"},{"municipality":"Dupax Del Sur","association":"Mabuhay Farmers Association","lon":"121.2111","barangay":"Kinabuan","lat":"16.1197","province":"Nueva Vizcaya"},{"lat":"17.4287","municipality":"Cabagan","association":"BP2 Cabagan Association","province":"Isabela","barangay":"San Juan","lon":"121.7181"},{"municipality":"Reina Mercedes","barangay":"Labinab Pequeno","province":"Isabela","lat":"16.9828","lon":"121.8207","association":"BP2 Reina Mercedes Association"}],"media":{"description":"Agro-Climatic Advisory Portal-Bicol (ACAP-BICOL) serves as a centralized hub for the development of Climate Information Services (CIS) in the Bicol Region. It contains relevant weather and climate information which can be used in developing tailored advisories and crop recommendations.","url":"https://firebasestorage.googleapis.com/v0/b/amia-cis-dev.appspot.com/o/media%2Fimages%2Fopengraph%2F1200x600%2Fog_home_1200.png?alt=media&token=51f9241c-45da-456e-9906-677c2f8fe93a","path":""}},"__N_SSG":true}